stop_id,stop_name,stop_lat,stop_lon
4986,Michail Zavou - Dimitri Lagiou 2,34.7093473162386,33.073241987991
7165,Michail Zavou - Acheritou,34.7087267001485,33.0705004840034
44,Agiou Epiktitou - Manou Katraki 2,34.7098374528631,33.0677604327667
45,Agiou Epiktitou - Kokkinogias,34.7116505384566,33.0668664277662
6754,Kokkinogias - Agiou Epiktitou 2,34.7123356434991,33.0673256452586
6753,Kokkinogias - Agiou Epiktitou 1,34.7139317808572,33.0673706220355
7193,Agios Athanasios Cemetery 2,34.7143923263145,33.0662133809185
6752,Charalampou Evagorou - Inomenon Ethnon,34.7127701924395,33.0641917624653
4770,Charalampou Evagorou - Agiou Athanasiou,34.7111488058603,33.0606195173059
348,Anoikodomiseos - Monemvasias,34.7104280480221,33.0592539449908
51,Anoikodomiseos - Aretis 2,34.7093918355048,33.0574950481095
52,Anoikodomiseos - Machiton Eldyk,34.7088879002557,33.0551905436369
55,Christoforou Savva - Nyremvergis,34.7124786321695,33.0514908312188
56,Nyremvergis - Sfalangiotissis 2,34.713957955171,33.050552556133
59,Sfalangiotissis - Pafsaniou,34.7103423452446,33.0491962314952
60,Agios Athanasios Municipality 2,34.7089986517801,33.0492718772386
61,Mersinakiou 1,34.7080610563358,33.048616117609
62,Grammar School 2,34.7088563212755,33.0441720753009
63,Katinas Paxinou - Georgiou Kalogeropoulou,34.7091464161811,33.039749546724
6755,Georgiou Kalogeropoulou - Kato Zodeias 2,34.7067565580654,33.0401196798359
65,Georgiou Kalogeropoulou - Androkleous 2,34.7064761167079,33.0427293894405
369,14 Elementary School - Mesa Geitonia,34.701911384342,33.0472912906282
6750,Archiep. Makariou C´ Ave. - Grigori Afxentiou,34.6996484669944,33.0457941061496
812,Archiep. Makariou C´ Ave. - Grigori Afxentiou,34.6957078579473,33.0452350950428
114,Archiep. Makariou C´ Ave. - Sfaktirias,34.6939133136011,33.0451904458436
814,Agias Zonis - Anakreontos,34.6916138431624,33.0449380843418
6746,Agias Zonis - Glafkou Alithersi,34.6892602879174,33.0446202022534
4955,Agia Zoni Church,34.6838226109254,33.0442897785214
761,Gladstonos - Christodoulou Karydi,34.6818470538361,33.0460026357652
775,B´ Elementary School 1,34.6830007173559,33.0476407893716
758,Gladstonos - Michail Koutsofta,34.6840813268848,33.0514295767971
75,Kalogries - Courthouses,34.6849555181869,33.0527074094777
108,Department of Road Transport 2,34.7093511475732,33.0059515266327
6703,Agia Fyla High School 2,34.7074482379544,33.0083101065123
109,Kilikias - Lykavittou,34.7066995599244,33.0107888452794
6702,Lykavittou - Kreontos 2,34.7066363416928,33.0117934656204
6700,Lykavittou - Methanon,34.7075018822758,33.0134861867898
101,Axiou - Mimozas 2,34.7074742184826,33.0181817760888
6698,Axiou - Gianni Papadopoulou 2,34.707744492217,33.019863518459
100,Domnitsas Lanitou Kavounidou - Evagora Laniti 2,34.7059586900202,33.0214137012625
7171,Pavlou Liasidi - Gkogia,34.7042634901475,33.0204741820066
6696,Gkogia - Mane 2,34.7035602019739,33.0198297599534
98,Kamelias - Marias Iordanidou 2,34.7020543984206,33.0186719577165
6695,Kamelias - Kypridos,34.7019556485275,33.0154835114837
4003,Kamelias - Yakinthou,34.7009730027127,33.0128736560283
7167,Alois - Ntalias,34.6990343017407,33.011421145164
7169,Alois - Anoixeos 1,34.69725761294,33.0130586975745
6694,Agios Georgios Chavouzas Church 2,34.6936681976649,33.0155583951598
6693,Christofi Ergatoudi - Kosta Loizou,34.6948131255535,33.0180589052176
6692,Titanon - Chatsatourian 2,34.6959579908303,33.0206249949618
91,Renou Fragkoudi - Konstantinou Symeonidi 2,34.6981313118181,33.0205709403801
6690,Vasileos Konstantinou - Steliou Kyriakidi1,34.698978896208,33.0211389313324
6688,Vasileos Konstantinou - Solomou Solomou 2,34.6969408188801,33.0213349479031
6687,Ivykou - Vasileos Georgiou B´,34.6952902282917,33.0230705474989
4004,Vasileos Georgiou B´ - Lavyrinthou,34.6957228364625,33.0243590436558
4005,Vasileos Georgiou B´ - Elikonos,34.6970389592339,33.026696012775
6686,Panagia Tricheroussa Church 2,34.6969842233747,33.0294256469773
111,26 Elementary School - Panagia Tricherousa 2,34.6938555489595,33.0271208002246
112,Spyrou Kyprianou Ave. - Vasileos Konstantinou A´ 1,34.6925935896022,33.0245437333689
6684,Vasileos Konstantinou - Gkropious,34.6896988919534,33.0243026906326
6683,Gkropious - Leister Stanchop,34.6893651016713,33.0249358142695
6682,Gkropious - Petrou Tsirou,34.6912576244105,33.0303843915006
6681,Petrou Tsirou - Alkamenous,34.6905177459796,33.0319890315422
4006,Petrou Tsirou - Polydefki,34.6885609468903,33.0316607537606
6679,Debenhams Apollon 2,34.6859546466751,33.0321401165136
794,Dodekanisou - Katholiki High School 2,34.6834830673247,33.034595449124
23,Dodekanisou - Archiepiskopou Leontiou A´ 2,34.6805069084406,33.0354566103523
22,EMEL Bus Station Leontiou A´,34.6792348518186,33.0372354212458
94,Giannou Kranidioti - Anoixeos,34.6974110978269,33.0112462235336
6798,Archiep. Leontiou A´ - Old Hospital,34.6791086542181,33.0370607045984
4057,Enoseos,34.6759780900451,33.0412509960873
769,Municipal Market - TEPAK,34.676815672063,33.0443406277466
774,Anexartisias - District Office 1,34.6797737657,33.0437418053673
771,Gladstonos - Vragadinou,34.6792603888362,33.0419076004369
121,General Hospital 1,34.7052831120946,32.9834894170244
152,Karmiotissa Stadium 1,34.7032276457608,32.9888731031728
376,Grigori Afxentiou - 103 Street 2,34.7010275126452,32.9917778885804
298,Grigori Afxentiou - 100 Street 1,34.7001708802994,32.9928371188497
4970,Synergatismou - 55 Street 2,34.6976728417938,32.991538009039
153,Agios Nikolaos Church 2,34.6932540960576,32.9918660023153
4008,22 Street - 1 Street,34.6915948520081,32.9926413355194
140,7 Street 2,34.6914236604408,32.9957638635876
138,10 Street - Andrea Lontou,34.6900980800052,32.9976526937895
4966,Polemidia Lyceum 2,34.6833436513803,32.9969214577125
172,Melinas Merkouri - Polemidia Post Office 2,34.6808997904342,32.9966813852527
6678,35 Street - 49 Street 2,34.6805391129504,32.9987882742112
4009,35 Street - Panagioti Anagnostopoulou 2,34.6811974206864,33.0012226519135
170,Adamantiou Adamantiou - Dimitriou Kissonergi,34.6807284529581,33.0032094431778
171,Adamantiou Adamantiou - Evgeniou Voulgareos 2,34.6813055055211,33.0057639379354
168,Evgeniou Voulgareos - Defkalionos,34.6824056946405,33.0056875973197
169,Evgeniou Voulgareos - Athinokleous 2,34.685002893755,33.0047379929331
4974,Marinou Geroulanou - Mpizaniou,34.685589017734,33.0056768978987
166,Agios Ioannis High School 2,34.6827030047012,33.010043393918
240,Marinou Geroulanou - Agaristis 2,34.6809532059616,33.0134054655075
164,Georgiou Averof - Georgiou Fragkoudi,34.6801324337124,33.0146388858776
162,Parmenidou 2,34.679879593888,33.0172260191408
161,Rinou - Vasileos Evagorou,34.6811691910703,33.0169752059852
4973,Charilaou Trikoupi 1,34.6831169050568,33.0180563653661
127,Apostolou Varnava - Romis,34.6823589017188,33.0211565399656
154,Apostolou Varnava - Agias Varvaras 2,34.6813303510548,33.0239072494818
155,Apostolou Varnava - Romanou Melodou,34.6807169628824,33.0247585579683
834,Archiep. Makariou C´ Ave. - Fire Station 2,34.681518858102,33.0279901033579
6648,Archiep. Leontiou A´ - Karatza 2,34.6823114227731,33.0320950419712
3398,Archiepiskopou Leontiou A´ - Filiou Zanettou,34.6816798914142,33.0331318750662
4898,MY MALL,34.6509873036552,32.9971954686939
4897,Kathetos Limaniou - Fragklinou Rousvelt 2,34.6592026213638,32.9958528130199
4975,Epimitheos 2,34.6658667540483,32.9930583629114
4976,Acharnon - Limassol Industrial Area 2,34.6690050481238,32.9940513602555
177,Dilou - Limassol Industrial Area 2,34.6705472144888,32.9966817981718
4895,23 Elementary School - Agios Spyridonas 2,34.6675352619475,32.9986029129538
6741,Pigasou - Aidonion 2,34.6671925600187,33.0026304421223
7179,Miltonos - Tefkrou Anthia,34.6690321692655,33.0043550606097
3,Miltonos - Tefkrou Anthia 2,34.6703577805953,33.004999121636
186,Mytilinis - Chiou 2,34.6705110464897,33.0058723414701
4981,Mytilinis - Antipaxou 2,34.6659299877357,33.0046714197054
8,Sarantaporou - Zyrichis,34.6656862833522,33.0086879420416
9,Sarantaporou - Markou Charalampous 2,34.6665517291078,33.0119515018197
6745,Asias - Ilioupoleos 2,34.6654151944615,33.0144834943597
6659,Vasileos Pavlou A´ - Aiginis,34.6669571821565,33.0151386426989
6658,Vasileos Pavlou A´ - Kyriakou Katoli 2,34.6701494770532,33.0155649117474
14,Vasileos Pavlou A´ - Pafou 2,34.6727645352742,33.0166351128825
6657,Misiaouli kai Kavazoglou - Soranou 2,34.6735215520626,33.0198990069736
16,Misiaouli kai Kavazoglou - Ippokratous,34.6738546243294,33.0232392514133
17,D´ Elementary School,34.6744131686009,33.0260447280247
18,Markoni - Filellinon,34.6752963166793,33.0287521130018
634,Asklipiou - Areos,34.6785878395651,33.0288296639255
3396,Dimitriou Charalampous - Monis Machaira,34.6789211532071,33.0302707225517
6664,Aiolou - Panagioti Diomidous 2,34.6805890757129,33.0318105495945
212,Ileias - Chytron,34.7179983696637,33.0160544124001
6706,Ileias - Aristagorou,34.7171779594776,33.0143286945985
213,Kanakarias - Koutsoventi 2,34.7158433029263,33.0144376752455
205,19 Elementary School - Agia Fylaxi 1,34.7158429302663,33.0172989995831
214,Kanakarias - Feretimis,34.7166181104558,33.0196472162909
6709,1 Apriliou - Kanakarias 2,34.7173753660433,33.0211108478352
202,E.N.A.F. Theatre 2,34.7139662613464,33.0230538908087
201,1 Apriliou - Kallinikou,34.7128660484234,33.0232283166197
6712,Agias Fylaxeos - Meleagrou 2,34.7109901835705,33.0239922235087
7183,Evagora Laniti - Domnitsas L. Kavounidou,34.7070767300957,33.0223967833467
198,Agias Fylaxeos - Zinonos Rossidi,34.7028642096905,33.0280518867633
6714,Akanthous - Patroklou Kokkinou,34.702484979571,33.0300609154264
197,Rizokarpasou 2,34.7039546199545,33.0311533992528
196,Agia Marina Church 2,34.7024030999458,33.0328453121097
6718,Ierou Lochou - Sofias Vempo 2,34.7002747668203,33.0332593945698
194,Agias Fylaxeos - Spyrou Kyprianou Ave.,34.6984353473746,33.0324069923897
188,Agias Fylaxeos - Kissamou,34.6955130830329,33.0341200441886
6721,Agias Fylaxeos - Aigyptou,34.6935650421537,33.0347415797288
7185,Agias Fylaxeos - Alkyonis,34.6913193305466,33.0356249882946
191,Dodeka Apostolon Church,34.689145712354,33.0366503093537
6722,Laniteio Lyceum 1,34.6877117004736,33.0371955468095
189,Agias Fylaxeos - Episkopou Lavrentiou 2,34.6854660810192,33.037718562991
7186,Agias Fylaxeos - Athinaidos Z. Lanitou,34.6816421272211,33.0388630711062
217,Agias Fylaxeos - Athinaidos Lanitou,34.6807851830011,33.0396159078497
210,Palodeia Community Board 2,34.7455127280096,33.0056263693333
209,Melathron EOKA 2,34.7412021283761,33.0071554961063
207,1 Apriliou - Aimiliou Zola 2,34.7208929471456,33.017190833824
7225,Aristagorou - Sopatrou,34.7176921592159,33.012690583995
4993,Arsous - Romain Rollan,34.719793408316,33.0118171766317
4992,Ptolemaidos - Nikou Gkatsou,34.7214255727906,33.0124945616647
6800,Edessis - Naousis,34.7213352736716,33.0136194942729
4994,Romain Rollan - Sergiou Prokofief,34.7194416509947,33.012428733875
4991,Kalopsidas - Riginou 2,34.7189726746886,33.0128873665776
6713,Agias Fylaxeos - Mesogeiou,34.7068957858924,33.0253887897436
43,Agiou Athanasiou - Gianni Ritsou,34.7094444778525,33.0605199917269
4766,Agios Athanasios Industrial Zone 2,34.7047983908233,33.0641965241074
4768,Andrea Kariolou - Ermi,34.7029398463296,33.0658111578776
4767,Elpidos - Igoumenitsas,34.7021277026591,33.0667932500718
326,Petrompei Mavromichali - Chatzigeorgaki Kornesiou,34.7009001348757,33.0688341389062
7187,Linopetra Elementary School,34.6979520508084,33.0674668561848
6787,Karpasias - Dimitriou Kitrou,34.6986839858238,33.0647268243356
322,Karpasias - Kythreas,34.70050590403,33.0641495324538
4769,Andrea Kariolou - Agiou Athanasiou Ave. 2,34.7015261653881,33.0617480954643
7188,Spyrou Kyprianou Ave. - Filikis Etaireias,34.6984281503874,33.0529561639197
260,Stavrou Stylianidi - Falirou,34.699564956976,33.0516684526371
259,Stavrou Stylianidi - Vouliagmenis 1,34.701855761466,33.0510474796262
251,Pavlou Liasidi - Avraam Antoniou 1,34.7031631426158,33.0515505758152
4988,Elpinikis - Troias 1,34.7033428866654,33.052981134106
4015,Elpinikis - Nikola Sofokleous,34.7041263540244,33.0554276114204
253,1 Oktovriou - Sysklipou,34.7034672110157,33.0572398017474
254,1 Oktovriou - Solomou Solomou,34.7025380444791,33.0579270799525
255,27 Elementary School - Timios Prodromos,34.7008163666116,33.0563535283743
256,Georgiou Konstantinou - Solomou Solomou,34.7008441813606,33.0546829229765
257,Milias - Ardanon,34.702791935513,33.0549244305383
252,Elpinikis - Troias 2,34.7033516994966,33.0534506757451
270,Pavlou Liasidi - Avraam Antoniou 2,34.7030641070216,33.0511683352247
4987,Stavrou Stylianidi - Vouliagmenis 2,34.7020451461099,33.0510257573987
6758,Stavrou Stylianidi - Iridos,34.6995378523401,33.0517885441449
261,Eptanisou - Grigori Afxentiou,34.6977081610453,33.0495272331094
6759,10 Elementary School - Chalkoutsa 2,34.6955433737069,33.0507269692899
263,Omirou - Konstantinou Davaki,34.6940731829728,33.0513811656866
4016,Omirou - Machatma Gkanti,34.6918991548381,33.0530502667495
264,Nikodimou Mylona - Riga Feraiou 2,34.6907092628438,33.0519577293993
6762,Riga Feraiou - Dimitriou Glinou 2,34.6893204365674,33.0521206256056
266,Riga Feraiou - Vasili Vryonidi 2,34.6877011651049,33.0532222639656
805,Zoo - PASHDY,34.6846393759327,33.0538862435104
776,Gladstonos - Aristodimou Pilavaki,34.6837388024438,33.0510581915224
6652,B´ Elementary School 2,34.6828563923632,33.0477389574681
4038,Gladstonos - Zinonos,34.681170955881,33.0453472700374
4017,Mouttagiaka Square,34.7202124396557,33.1005010984064
4018,Agiou Georgiou - Evagora Pallikaridi 2,34.7197018617178,33.0962410615721
307,Mouttagiaka Elementary School 2,34.7222064391052,33.0992147250942
2086,Archiep. Makariou C´ - Ammochostou 1,34.7257942475564,33.1007918353469
4019,Michail Karaoli - Griva Digeni,34.7284980008883,33.102706597378
289,Archiep. Makariou C´ - Ammochostou 2,34.7258572819847,33.1009011358195
294,Agiou Eleftheriou - Ammochostou 2,34.7233676413576,33.1017609543959
293,Agiou Eleftheriou - Archiep. Makariou C´ 2,34.7225376253086,33.1022077377494
297,Grigori Afxentiou - Keryneias,34.7163422655774,33.1023202472491
296,Petraki Giallourou - Keryneias,34.7168727079103,33.1042211919753
4025,Riga Feraiou - Iakovou Patatsou,34.7134974262861,33.1072201695897
300,Anthypol. Kleanthi Kleanthous,34.7138930709075,33.1085093372485
756,Eleftherias - Rigainis,34.7149676716731,33.1068398333605
299,Dimokratias - Eleftherias,34.7136344174711,33.1052436836346
7189,Ariadnis - Profiti Ilia,34.7054900862721,33.1066201729169
803,Vasileos Georgiou A´ - Pervolas,34.7013348530156,33.104299977933
606,Vasileos Georgiou A´ - Stymfalion,34.6993725987447,33.0999517875182
285,Prophitis Ilias Church 2,34.7019012613643,33.0953905826669
283,Voltairou - Ampelakion 2,34.7002627756416,33.09178542139
282,Daidalidon - Xanthippis 2,34.6996776907407,33.0903434730766
281,Christaki Kranou - Vasileos Georgiou A´ 2,34.6977762407042,33.0885398199301
308,Vasileos Georgiou A´ - Ydras,34.6957383421426,33.0883411175976
6596,Vasileos Georgiou A´ - Dasoudi Beach,34.6938025165958,33.084070050195
310,Vasileos Georgiou A´ - Andrea Zappa,34.692776264035,33.0814377622389
5002,Promachon Eleftherias - KEAN 1,34.6905888888998,33.0752561654003
275,28 Oktovriou - Debenhams 1,34.6880320242089,33.0680811006019
602,28 Oktovriou - Kerkyras,34.6864018586877,33.0642587406617
624,28 Oktovriou - Akti Olympion B´ Beach,34.6836270785222,33.0588418384404
7191,Limassol Municipal Open Air Theatre,34.6833939701524,33.0559596327084
340,Patron,34.7214605006178,33.0838140687955
339,Agia Paraskevi Church 2,34.7196650784218,33.0850791607954
6765,Agias Paraskevis - Tillirias 1,34.7173739775307,33.0858849890853
338,Agias Paraskevis - Sardeon 2,34.7155070969677,33.0861451638874
4984,Germasogeia Roundabout 2,34.7091486748794,33.0873070330012
335,Christaki Kranou - Spyrou Kyprianou Ave. 2,34.7056593137975,33.0865280653047
4034,Christaki Kranou - Irakleidon 2,34.7004188349348,33.0880512772641
332,Panagioti Tsagkari - Kalliopis 2,34.6943545328333,33.0812318612539
333,Panagioti Tsagkari - Zagreos 2,34.6988271695298,33.0815856347836
6771,Panagioti Tsagkari - Dafnis 2,34.7006753205055,33.082351784959
4035,Methanon - Elefsinion 2,34.7032266886274,33.0833698192841
6629,Spyrou Kyprianou Ave. - Akarnanias,34.7025346026578,33.0799513739199
220,Kolonakiou - Pelasgon,34.7007693754548,33.0764009680701
6630,Health Centre 1,34.6992646392521,33.0743795878281
6631,Kolonakiou - Andrea kai Annas Poupoutsi,34.6979314157932,33.072009030751
4958,Linopetra High School 1,34.6956343997182,33.0675632411505
321,Griva Digeni - Stratigou Timagia,34.693201300988,33.0643622582278
6632,Griva Digeni - Griva Digeni Hideout 1,34.6916422609963,33.0623303213213
317,Dimokritou - Kykladon,34.6914267123815,33.0605832996572
318,Agios Nikolaos Lyceum 1,34.6937540473529,33.0591219591865
319,Anti Filita - Meletiou Metaxaki 2,34.6952063483668,33.0582495221858
6794,Meletiou Metaxaki - Archangelou Michail 2,34.6955945473886,33.0573435650597
315,Aisopou - Xenokleous,34.6938368930189,33.0555408510232
6796,Agios Nikolaos Cemetery 2,34.6921139170709,33.0567515943188
6633,Agios Nikolaos Church 1,34.6887681600871,33.0570004139943
346,Griva Digeni - Archiep. Makariou C´ Ave.,34.6872090893536,33.054761294322
4969,Archiep. Makariou C´ Ave. - Griva Digeni 1,34.6867049916607,33.0527085182304
6634,Archiep. Makariou C´ Ave. - Kosta Partasidi,34.6873833341999,33.0478616468077
6635,Archiep. Makariou C´ Ave. - Ipparchou,34.6875115795247,33.0424794608923
541,Laniteio School 1,34.6870615943218,33.0397826570356
365,Ioanni Tsirou - Post Office 2,34.6858454381703,33.035709980505
4030,Akrounta Community Council,34.7655322513701,33.0813670935553
4032,Foinikaria Community Board,34.7528041804965,33.0989016742735
345,Petrompei Mavromichali - Kolonakiou 2,34.6978876096532,33.0698034107044
6785,Petrompei Mavromichali - Achyronos Liopetriou,34.6999352710049,33.0687459879508
324,Elpidos - Pandoras,34.7016594312785,33.0655808404442
6786,Karpasias - Kosta Katselli,34.6996038793956,33.0645965132398
323,Karpasias - Kantaras,34.6977548408747,33.0652938735981
7192,Gernan Oncology Hospital 2,34.72880575589,33.0606433279323
350,Charalampou Fteroudi - Agiou Mina,34.7086008749551,33.0516631503391
351,Renatou Kartesiou - Mersinakiou 2,34.7071953710241,33.0485391715176
115,Markou Drakou - Dimitriou Charalampous 2,34.7001989833944,33.0446479114348
354,Markou Drakou - Avraam Linkoln,34.7018043653975,33.0441028118013
355,Markou Drakou - Feidonos 2,34.7025802896409,33.0430222087096
356,Kalogeropoulos High School 2,34.7029419344527,33.0403034680062
357,Kosti Palama - Eresou 2,34.702031666051,33.0386432976159
358,Kosti Palama - Filopappou 2,34.6995966348956,33.0392754646528
360,Kosti Palama - Str. Alexandrou Papagou 2,34.6951232633795,33.0407910035964
4013,Kosti Palama - Michail Georgalla 2,34.6937344235063,33.0410414403294
362,Agios Nektarios Church,34.6918767553682,33.0409859336905
363,12 Elementary School - Laniteio,34.6909573313067,33.0397736030073
364,Kritis - Vasileiou Tou Megalou 2,34.6900830568523,33.038332048366
6675,143 Street - Karava,34.7067624212292,32.9865576127835
6674,143 Street - Konteas 2,34.7082686359195,32.9888287478533
371,143 Street - 141 Street 2,34.7096214952487,32.990979858736
6671,104 Street - Zodeias 2,34.7091165891149,32.9923667791352
373,130 Street - 131 Street 2,34.7068982505631,32.9933716146245
151,120 Street - 127 Street 1,34.7057528865931,32.9918320198924
6670,Timios Stavros Church 2,34.7044995087713,32.993633876219
4971,103 Street - 120 Street 2,34.7024795510393,32.9946276899176
4037,102 Street 2,34.7011629408506,32.9946496133297
149,100 Street - 101 Street 2,34.7005137329734,32.9969754172803
379,Politismou - 100 Street 1,34.6999366157372,32.9984385836606
4962,B´ Kato Polemidia Elementary School 2,34.6963114089358,32.9975324146573
381,Patriarchou Fotiou - 3 Street,34.6950849853955,32.9980892873243
390,Panagia Evagelistria Church 2,34.6941922273154,33.0005895850089
383,Panagias Evangelistrias - Agiou Nikolaou 2,34.6938765698218,33.0028168954585
7157,Panagias Evangelistrias - Kydonion,34.6938312649678,33.007773753766
7195,Tilemachou Alavera - Lamprou Konstantara,34.6917751890945,33.0076971360683
7194,Tilemachou Alavera - Kyrillou Loukareos,34.6914145595001,33.0061795179024
136,Theodorou Potamianou - Troodos Roundabout 2,34.6883752286932,33.010524447915
134,30 Street 2,34.6887809517385,33.011441571809
384,23 Street 2,34.6904491840875,33.0122606325485
4964,26 Street 2,34.6898538710169,33.0135051592825
131,28 Street 2,34.6889610974317,33.0135159318432
4011,Agios Neofytos High School 2,34.6872027098786,33.0125440043012
237,Spyrou Kyprianou Ave. - 71 Street,34.6869859673086,33.0152842125567
6669,Nikou & Despoinas Pattichi - Epidamnou,34.6882839198098,33.0196514370874
386,Nikou & Despoinas Pattichi - Annis Marias,34.6874811173972,33.0209067437208
6667,Nikou & Despoinas Pattichi - Dikaiarchou 2,34.6863624089101,33.023581179568
387,Nikou & Despoinas Pattichi - Vas. Konstantinou 2,34.6842149398374,33.0291591222144
393,9 Street 2,34.6663141619919,32.9015395693598
394,1 Street - Karpasias,34.6683986393572,32.9032070753038
7200,1 Street - Mouseiou,34.669516609762,32.9028892400636
7153,Apollonos - Stadiou,34.6705947757896,32.898008915188
7196,Stadiou - 23 Street,34.6725886524088,32.8991089266036
7197,Kremastis Rodou - Spyrou Petousi,34.6745721038743,32.8985170758957
7198,Kremastis Rodou - Aikaterinis Kornaro,34.6757133709623,32.8938109701708
4072,Episkopiana,34.6781449453354,32.890129131509
405,Nikou Georgiou - Trofimou Koulle,34.6731793992823,32.9048060893945
399,Mykinon 2,34.6715313863049,32.9077550953738
4067,Episkopi Police Station 2,34.6699437103237,32.9070692069859
4062,Episkopi Community Park 2,34.667401425849,32.908087114838
6608,14 Street - 28 Street,34.6677630826458,32.909341913681
4061,Cyprus Wine Museum,34.6753797754139,32.9171602199446
400,Pafou - Fountain,34.6741016756379,32.9208400496814
466,Kolossi Elementary School A´ 2,34.6708448891661,32.9337557982178
409,Apostolou Louka Ave. - Iakovou Patatsou,34.6719829730705,32.9372041344041
6609,Kolossi Community Stadium 2,34.6748706425127,32.9410770294209
6615,Agiou Georgiou Ave. - Agiou Vichianou,34.6834250225223,32.9535598184541
413,Agiou Georgiou Ave. - Kassianou,34.6842292357911,32.958024394481
6616,Agiou Georgiou Ave. - Kassianou,34.6840587978197,32.9607318740582
443,Agios Georgios Church 2,34.6840776199816,32.9632536718684
6623,Ilia Kannaourou - Kronou,34.6833482936683,32.96719496485
434,Ilia Kannaourou - Aigyptou,34.6825733542023,32.9695096140556
6624,Ilia Kannaourou - Akanthous,34.6819071194171,32.9742367580326
6625,Ilia Kannaourou - Oresti,34.6814210044456,32.9786472004348
6626,Ilia Kannaourou - Kyparissona,34.6809167627678,32.9835597539281
245,Ilia Kannaourou - 9 Street,34.6811517660152,32.9881992322345
243,Pafou - Monovolikos 2,34.6795920652345,32.9935157033909
221,Pafou - 28 Elementary School 2,34.6779870140949,32.9971181459976
869,Pafou - Christou Keli,34.6758768063371,33.0034275727436
420,Pafou - Omonoias Ave.,34.6760203322274,33.0059818889107
422,Pafou - Evgeniou Voulgareos,34.6757772831842,33.0095513457284
433,Pafou - Dimosthenous,34.674980072319585,33.0126404032058
159,Pafou - Vasileos Pavlou A´ 2,34.6739729552189,33.0165043674397
535,Agios Ioannis Police Station 2,34.67454972814,33.0190696625303
158,Archiep. Makariou C´ Ave. - Souez 2,34.6762176885773,33.0212204734455
157,Archiep. Makariou C´ Ave. - Vyzantiou,34.6788863567926,33.0246051858907
428,Archiep. Makariou C´ Ave. - Ammochostou,34.6845840077666,33.0318229944535
4073,Agios Ermogenis 2,34.6623824918516,32.8911103783733
4068,Episkopi Community Council 2,34.6710583252237,32.9024508329229
7202,Agios Charalampos Church 1,34.6781958582165,32.920912567016
403,Ellados - Enoseos 1,34.6823538521537,32.9220548654075
401,Ellados - Irlandias 1,34.6859172732647,32.9241912874337
7155,Gallias - Club Aphrodite,34.6876127874361,32.924429924074
7156,Ellados - Irlandias 2,34.6857189744195,32.9243443079387
404,Ellados - Enoseos 2,34.6823088254154,32.9221531576967
7201,Agios Charalampos Church 2,34.6781418356678,32.9210436119374
6937,Kourion Beach,34.6651847159342,32.8790462711465
465,Kolossi Castle,34.6650740320009,32.9349064054231
7203,Archiepiskopou Makariou C 2,34.667825107563,32.9360503054112
464,Griva Digeni - Galilaiou,34.6731271632649,32.9351293309064
461,Griva Digeni - Agiou Epiktitou.,34.6779883226685,32.9360752421941
7205,Georgiou Griva Digeni - Agias Sofias,34.6811358135487,32.9365313174707
7162,Dimitri Liperti - Griva Digeni 2,34.6829489711092,32.9376106934239
6612,Citizen Service Centre,34.6829862483706,32.9400123543128
6613,Ammochostou - Apostolou Andreou,34.6800293873684,32.9421104315828
457,Ammochostou - Ag. Foteini & Ap. Andreas Church 2,34.6792359661178,32.9424384719939
6614,Ammochostou - Agiou Georgiou Ave.,34.6770359379669,32.9431713653496
4047,Ilia Venezi - Griva Digeni,34.6851664527585,32.9561898562635
4048,Ilia Venezi,34.6885209988961,32.9558714817094
451,Ilia Venezi - Archiep. Makariou C´ 2,34.6895761760948,32.9561001920638
449,Archiep. Makariou C´ - Agiou Sila,34.688468553641,32.9607297918492
6619,Archiep. Makariou C´ - Trion Ierarchon,34.6872786394251,32.9621496069458
6621,Michalaki Karaoli - Nafpliou,34.6873064786505,32.9647697549188
292,Michalaki Karaoli - Lefkados,34.6892913486272,32.9681533690034
445,Michalaki Karaoli - Evrota,34.6906358735988,32.9716247060016
446,Argonafton - Afrikis,34.6883369249553,32.9744094457389
7208,Petraki Giallourou - Sotiri Tsangari,34.68674056692,32.9735256387373
7206,Petraki Giallourou - Andrea Papandreou,34.6837555749214,32.9732318334124
4070,14 Street - 16 Street,34.6657738584198,32.9025006850635
4046,Ammochostou - Ethnikis Antistaseos,34.6768735849093,32.9431059804565
470,Ammochostou - Ag. Foteini & Ap. Andreas Church 1,34.6784965743727,32.9426027262869
468,Ammochostou - Agiou Memnonos,34.6803358768803,32.9418591406326
458,Kolossi Elementary School B´,34.6821839006399,32.940515099435
7212,Solomou Solomou - Vasili Michailidi,34.7006881214526,32.9394863844888
630,C´ Ypsonas Elementary School 2,34.6969831631125,32.9423606747554
632,Kolokotroni - Pindou,34.6958481843696,32.9451238311655
6729,Kolokotroni - Georgiou Karaiskaki 2,34.6960215208988,32.9497531520617
633,Asklipiou - Galinou,34.6987115208153,32.9567068228392
635,25 Martiou - 1 Apriliou 2,34.6999750292863,32.9596324566076
6728,25 Martiou - Georgiou Sachtouri 2,34.6995161648078,32.9629301991055
6726,25 Martiou - Patriarchou Ierosolymon,34.7007073069992,32.9655939272823
6725,Patriarchou Ierosolymon - 25 Martiou 2,34.7001757178597,32.9672865963698
244,Steliou Kazantzidi - Konstantinou Avgeraki 2,34.6961116664009,32.9817006058704
4899,Pera Kampou 2,34.6951923538661,32.9855113200816
6676,General Hospital 2,34.7071225147914,32.9817746211046
4972,Nikaias Avenue - 22 Street 2,34.6921085896216,32.988907345257
145,22 Street - 14 Street 2,34.6914143849348,32.9910145879522
6797,Melinas Merkouri - Pafou 2,34.6792224462316,32.996277549966
179,Andrea Araouzou - Vasilissis Olgas 2,34.6769048056097,32.9952624683075
6738,Andrea Araouzou - Androgeo,34.6749839484319,32.9943347415196
176,Agoras 2,34.6714577066738,32.9905801332015
6638,Kathetos Limaniou - Epimitheos 1,34.6680398571687,32.9899147167545
4893,Kathetos Limaniou - Fragklinou Rousvelt 1,34.6592657556255,32.996114737672
6730,Dionysiou Solomou - Odyssea Elyti,34.7014915994484,32.94129838632
6731,Dionysiou Solomou - Konstantinou Kavafi,34.7014555909746,32.9414294420655
639,Steliou Kazantzidi - Mimi Fotopoulou,34.6965982556326,32.9793420905224
4773,B´ Trachoni Elementary School,34.6574583740088,32.9693442000963
499,Pentadaktylou 2,34.65852217846,32.9681214896371
498,Dimokratias - Lefkonoikou 2,34.6598470571844,32.9653379801874
495,Lefkonoikou 2,34.6591340553567,32.9633410808987
497,A´ Trachoni Elementary School,34.6592688897235,32.9619222460089
493,Ammochostou - Apostolou Varnava,34.6607020164389,32.95966242444
6736,Archiep. Makariou C´ - Agiou Panteleimonos 2,34.6588973316099,32.9564765250939
6735,Agiou Mamantos - Agiou Rafail 2,34.6571392431758,32.9576451756715
488,Agios Mamas Church 2,34.657501096339,32.9610499804706
4044,Griva Digeni - Ethnikis Antistaseos,34.6552391214127,32.9661802095772
4045,Konstantinou kai Evripidou Ave. - Griva Digeni 2,34.6546897858073,32.9690396538454
7217,Konstantinou kai Evripidi Ave. - Flamoudiou,34.6534731986507,32.9725322337056
4894,Fragklinou Rousvelt - Andrea Iordanous,34.6573810646342,32.9993888489748
4896,16 Elementary School - Zakaki 2,34.6585082893475,33.0022372795802
1,Fragklinou Rousvelt - Oinouson 2,34.6595362714255,33.0045400965739
6643,Fragklinou Rousvelt - Pierias,34.6602935894571,33.0081744309292
6644,Fragklinou Rousvelt - Saronikou,34.6614294023094,33.013271353294
33,Fragklinou Rousvelt - New Port Traffic Lights,34.6635480288833,33.0178884059459
504,Fragklinou Rousvelt - Galilaiou,34.6659910008168,33.0231715682533
477,Department of Lands and Surveys 2,34.668515864309,33.0239908865553
6661,Dimokratias - Pragas,34.6712575762628,33.0226272731857
37,Dimokratias - Artemidos,34.6723586215897,33.0221691266413
6653,Misiaouli kai Kavazoglou - Palaipafou,34.6742317224524,33.0307165567819
39,Gilntiz - Mpemper Mechmet,34.6742396868872,33.0346461834065
6649,Navarinou - Simou Menardou 2,34.6762315191909,33.0384129923283
24,Akrotiri Community Board,34.6010741941879,32.957084732052
6732,Fasouri 2,34.6372501718102,32.9463189964896
25,Genniseos Avenue - Ermou,34.6379036805836,32.9569457509576
26,Asomatos Community Board 2,34.6384456192483,32.9594549846082
6640,Taki Christodoulou,34.693637104378,33.0749859702662
527,Griva Digeni - 28 Oktovriou,34.68957166478696,33.0697090894552
4054,Griva Digeni - Agios Nikolaos Fire Station 1,34.6906737521967,33.0690003566633
6641,Griva Digeni - Armonias 1,34.6931638474355,33.0669279835135
525,Georgiou Neofytou - Kolonakiou,34.6949687728889,33.0644291365462
524,Georgiou Neofytou - Meletiou Metaxaki 1,34.6971535842667,33.0595502032712
4012,Spyrou Kyprianou Ave. - Eptanisou,34.6983302393291,33.0499097611408
231,Spyrou Kyprianou Ave. - Grigori Afxentiou 1,34.6982051479932,33.0469943753652
233,21 Elementary School - Kontovatheia 1,34.6979992736136,33.0428233004097
6642,9 Elementary School - Kapsalos,34.6975505278726,33.0361954298527
234,Spyrou Kyprianou Ave. - Inachou,34.695991739607,33.0314888877765
235,Spyrou Kyprianou Ave. - Iakchou,34.6911963577971,33.0216828449698
388,Spyrou Kyprianou Ave. - Nikou & Despoinas Pattichi,34.6899793911186,33.0189858588262
129,Spyrou Kyprianou Ave. - Nafsikas,34.6884376593107,33.016736504893
238,Spyrou Kyprianou Ave. - Theodorou Potamianou,34.685299724983,33.014410536802
181,15Elementary School - Agios Neofytos 1,34.6822067990434,33.0124340841501
506,Omonoias Ave. - Kamirou,34.6727921780726,33.0115376116823
507,Omonoias Ave. - Esperidon,34.6702941325341,33.0123449830409
10,Omonoias Ave. - Aiginis,34.6675344719583,33.0139490407962
32,Fragklinou Rousvelt - Dekeleias,34.6616277140389,33.0140135347199
31,Fragklinou Rousvelt - Evrypolou,34.6601853806488,33.0080761962948
30,Fragklinou Rousvelt - Oinouson 1,34.6594821549923,33.0047692810409
29,16 Elementary School - Zakaki 1,34.6583279339969,33.002029917563
28,Fragklinou Rousvelt - Renouar,34.6572548132146,32.9993670231124
6639,Kathetos Limaniou - Epimitheos 2,34.6679857294604,32.9896745976795
6637,Kathetos Limaniou - Georgiou Varnakioti 2,34.6752721401832,32.9888113486574
190,Archiep. Makariou C´ Ave. - Agias Fylaxeos,34.6865397108503,33.036070547384
542,Laniteio School 2,34.6870438265049,33.0389529336289
71,Archiep. Makariou C´ Ave. - Platonos,34.6875747883206,33.0422393110185
6627,Archiep. Makariou C´ Ave. - Kimonos,34.6877175955059,33.0463115698808
72,Archiep. Makariou C´ Ave. - Alasias,34.6874010936318,33.0485603672913
544,Archiep. Makariou C´ Ave. - Griva Digeni 2,34.686876524564,33.0522610185188
313,Agios Nikolaos Church 2,34.6891647065961,33.0575138120151
545,Griva Digeni - Griva Digeni Hideout 2,34.6918135842314,33.062363203529
4959,Griva Digeni - Georgiou Neofytou,34.6938051985473,33.0649304714732
547,Linopetra High School 2,34.6956166173062,33.0671046528369
344,Kolonakiou - Petrompei Mavromichali,34.6979766083109,33.0718343701403
329,Health Centre 2,34.6995620757721,33.0746309896614
4985,Spyrou Kyprianou Ave. - Dodekanison,34.7023549708026,33.0788374315713
548,Spyrou Kyprianou Ave. - Samou,34.7047867729789,33.0833823038881
218,Spyrou Kyprianou Ave. - Christaki Kranou,34.7059036356265,33.0853380642205
6773,Agios Tychonas Community Board 2,34.725819033529,33.1396428026819
556,Agios Tychonas Elementary School 2,34.7251089125897,33.1376319067058
462,Georgiou Griva Digeni - Vyzantiou,34.7187019970832,33.1333400813326
6776,Georgiou Griva Digeni - Kirkis,34.7159017120614,33.129382154326
557,Agia Anna Church 2,34.713964558648,33.1277846964168
558,Mesolongiou - Georgiou Griva Digeni 2,34.711097180969,33.1274963546279
559,Onisilou 2,34.7097020164433,33.1249825519696
6594,Amathountos Ave. - Armonia Beach,34.7076849182811,33.1221184769696
561,Amathountos Ave. - Poseidonia Hotel,34.7059852321227,33.1173440347264
4026,Amathountos Ave. - Sailing Centre,34.705104510564,33.114154248566
3401,Amathountos Ave. - Marathon Hotel,34.7034582549087,33.1097842071301
6595,Vasileos Georgiou A´ - Apollonia Hotel 1,34.6982220026645,33.0953426854081
567,Vasileos Georgiou A´ - Amerikanas,34.6964850370689,33.0907767448744
555,Armenochori,34.7440826076798,33.1292294290511
6778,Agia Anna Church 1,34.7140638465295,33.1276974823956
6777,Georgiou Griva Digeni - Ionias,34.7160099957147,33.1293167963865
6775,Georgiou Griva Digeni - Poseidonos,34.7191887209019,33.1335592929629
4055,Agios Tychonas Elementary School 1,34.7251361880152,33.137435350573
6774,Agios Tychonas Community Board 1,34.7258013605544,33.1393260238364
600,28 Oktovriou - Municipal Art Gallery,34.6832758089981,33.0579464118658
274,28 Oktovriou - Olympic Residence,34.6865822109648,33.064269797254
273,28 Oktovriou - Debenhams 2,34.6885545404173,33.0690095156999
4028,Promachon Eleftherias - Kosta Pitsillidi,34.6897428875577,33.0724823157706
571,Promachon Eleftherias - KEAN 2,34.6909223618055,33.0755621658399
6586,Vasileos Georgiou A´ - Panagioti Tsagkari,34.6927586425113,33.0808154161997
309,Vasileos Georgiou A´ - Park Beach Hotel,34.6938659197996,33.0836661411318
311,Vasileos Georgiou A´ - Germasogeia Police Station,34.6951532392487,33.0868665169204
580,Vasileos Georgiou A´ - Ampelakion,34.6966654515964,33.0907005119513
566,Vasileos Georgiou A´ - Apollonia Hotel 2,34.6981326140916,33.0943271388461
605,Vasileos Georgiou A´ - Profiti Ilia,34.698879180217,33.0967738086477
565,Vasileos Georgiou A´ - McDonald´s,34.7002911311858,33.1015143141621
607,Vasileos Georgiou A´ - Ariadnis,34.7017042673695,33.1046716950113
563,Amathountos Ave. - Aquarius Hotel,34.7032520368812,33.1084517650169
585,Amathountos Ave. - Aphrodite Amathusia Park,34.7038993500777,33.1106474309853
608,Amathountos Ave. - Prousis,34.7053029444309,33.114110842363
586,Amathountos Ave. - Navarria,34.7065972201167,33.118611602898
560,Amathountos Ave. - Onisilou,34.7079912514499,33.1223919282694
609,Amathountos Ave. - Ellados,34.7091052378266,33.1265323214247
610,Amathountos Ave. - Mediterranean Hotel 2,34.7100749730428,33.1305087937926
6587,Amathountos Ave. - Pasalimani,34.7097367732011,33.1346798067563
613,Amathountos Ave. - Agias Varvara Church,34.7124458047438,33.1471009513147
614,Amathountos Ave. - Iras,34.7139626389631,33.1529353576537
621,Amathountos Ave. - Elias Hotel,34.7145569263821,33.1606356876417
615,Amathountos Ave. - Hawaii Hotel,34.7143264108286,33.1644357049357
619,Paradromos Amathountos,34.7158626094606,33.1751086322517
618,Megalou Alexandrou - Ex Le Meridien,34.7139780570463,33.1749845309631
6584,Kathetos Limaniou - Lady´s Mile Junction,34.6497158034051,32.9999454379672
7222,Port Parallel Road - 4th Stop,34.6481014565212,33.0056634292202
7223,Port Parallel Road - 5th Stop,34.6534849138796,33.0098325233245
7224,Port Parallel Road - 6th Stop,34.6578218232407,33.0165448188319
588,New Port,34.6537446196729,33.0232227244472
6585,New Port - Passenger Building,34.6556927006373,33.0221319488309
589,Ave. Omonoias - Optikou Nikolaidi,34.6615189433628,33.0182153884961
592,Fragklinou Rousvelt - Social Insurance,34.6677399450672,33.0258352588422
593,Fragklinou Rousvelt - Water Board 2,34.6691642028609,33.0284225455108
594,Fragklinou Rousvelt - KEO 2,34.6711832773642,33.0322089794372
4040,Tzelal Bagiar - Agios Antonios Church 2,34.6718760191865,33.0379088772409
596,Agias Theklis - Old Port,34.6716856136187,33.0410851387219
597,Spyrou Araouzou - Agia Napa Church,34.6732624152377,33.0448735932546
598,Christodoulou Chatzipavlou - Christodoulou Sozou,34.6767417616956,33.0489580347666
599,Christodoulou Chatzipavlou - Zinas Kanther,34.6781568924941,33.0506290361378
759,28 Oktovriou - Sotiri Michailidi,34.6807075676039,33.0538836963295
40,Navarinou - Simou Menardou 1,34.6762765570871,33.0385767514481
6650,Mpagiazit,34.6745457089164,33.0366547925301
6651,Fevzi Pasa - Agkyras,34.6724711921543,33.0379418945615
765,Koumandarias,34.6730282753899,33.043978399107
4996,Archiepiskopou Kyprianou,34.6745340145838,33.0446777971919
790,Sokratous,34.6748591211617,33.0434008346241
767,Kitiou Kyprianou,34.6755718637679,33.0424733637941
6816,Omodos High School,34.8501294274644,32.8079914025801
4130,Omodos Elementary School 2,34.8479535810258,32.8063556834143
6815,Distrato Malias,34.811367881021,32.789472285737
4129,Malia Square 1,34.8166411284838,32.7831388220528
4128,Pano Pachna,34.7763646980416,32.7915831030831
6814,Apost. Petrou And Pavlou Church,34.7784291303084,32.7965398145446
6813,Agios Efraim Church 2,34.7834457999143,32.8275576740004
7233,Agios Amvrosios Community Board 2,34.7805422782579,32.8276948709687
7230,Agelikis Sotiriou - 1st Pano Kyvides 2,34.760816860682,32.8451862646227
7235,Agiou Panteleimonos Ave. - 2nd Pano Kyvides 2,34.7585362670414,32.8531997859837
7236,Agiou Panteleimonos Ave. - 3rd Pano Kyvides 2,34.7560533550348,32.858263087262
7237,Agiou Panteleimonos Ave. - 4th Pano Kyvides 2,34.7544968639421,32.8613797025455
4120,Troodous - Souni - Zanakia 2,34.7373584946621,32.8828301094716
4119,Kantou Community Board,34.6894228593077,32.907669747071
4127,Ag. Amvrosios,34.7565380865832,32.8143258666992
4125,Ag. Therapon,34.79769980614612,32.839958953857376
4126,Lofou,34.815705931114266,32.87794628143308
4131,Arsos,34.8413968157413,32.7706737136841
4124,Vouni,34.82195958423322,32.833900928497314
4132,2nd Stop Agios Nikolaos Pafou,34.8633496510177,32.7532143203581
4133,Dora,34.7803605595947,32.7373644447328
4134,Vasa Koilaniou,34.83385892073199,32.79253936767577
4135,Potamiou,34.8244531961402,32.8047345733644
4152,Rodon Hotel 1,34.9098868723141,33.0118990824602
7246,Apeitios School - Glafkos Clerides Sport Centre 1,34.916811975906,33.0153704827747
7276,Panagia Eleousa Church 2,34.9175960626536,33.018534526178
6055,Agros Post Office 2,34.9165137812369,33.0196399902421
6056,C.A.P.O. Agros Office 2,34.9170543599704,33.0223879839957
6925,Petrou Iliadi Ave. 2,34.9136544924256,33.0236788326143
6926,Anastasi Pitta - 2nd Agios Ioannis 1,34.8961431420494,33.0191645100296
6923,Kato Mylos Community Board 1,34.8947016703318,33.0063698172835
6924,1st Kato Mylos,34.8952698535106,33.0047390891335
4142,Kalo Chorio Police Station,34.8500895513304,33.0224026475192
6927,Spyrou Kyprianou Ave. - Kalo Chorio,34.8496843131652,33.0191427934814
6928,Gerasa - Kalo Chorio Road 2,34.8400450723797,33.0144265148184
4138,Gerasa 2,34.8007287125206,32.9988521118121
4136,Georgiou Griva Digeni - 5th Paramytha 2,34.7566495415254,32.9912588355026
6704,Palodeia Elementary School,34.7467933046674,33.0045120900888
4139,Fasoula,34.763804071142374,33.026528930664085
4137,Spitali,34.76325761114964,33.00390181541445
4140,Apsiou,34.79753656110758,33.01659402847292
4143,Louvaras,34.83715548828259,33.038545227050804
4145,Ag. Constantinos,34.86700242404753,33.06416568756106
4144,Ag. Pavlos,34.86350763469594,33.045991039276146
4146,Zoopigi,34.861077920328285,33.015893971920036
4153,Agridia,34.92861658507671,32.994556999206566
4154,Mathikoloni Community Board,34.7754694852358,33.0481310317789
48,Agios Athanasios Cemetery 1,34.7145907132947,33.0662244599531
49,Charalampou Evagorou - Kosta Monti,34.7130315894139,33.0644212994148
50,Charalampou Evagorou - Salaminos,34.7112299720839,33.0606086560464
353,Spyrou Kyprianou Ave. - Grigori Afxentiou 2,34.6983765004699,33.0469617158679
813,Archiep. Makariou C´ Ave. - Sfakion,34.6956988684009,33.0451586610886
77,Dodekanisou - Katholiki High School 1,34.6833929067955,33.0345299106883
76,Dodekanisou - Archiep. Leontiou A´ 1,34.6807414343687,33.0352492973061
4149,1st Dymes - 2,34.9211669900153,32.9812894995674
4148,Panagia Potamitissa Church 2,34.9076417662006,32.9913085424955
4147,Agros - Lemesos Road - 3rd Kato Mylos,34.8932046965343,33.0072999846326
4151,Ag. Theodoros,34.897612892913465,33.033052062988304
4150,Agios Ioannis Elementary School,34.8962695017884,33.0184312303408
6876,Nikou Karasamani - 1st Pelendri 2,34.8944819102979,32.9708105546225
4158,Nikou Karasamani - 2nd Pelendri 2,34.8978361823942,32.9696929659581
7263,Grigori Afxentiou - 3rd Pelendri 2,34.8999451468519,32.9653797043942
6880,Grigori Afxentiou - 4th Pelendri,34.8976906741242,32.9651179679856
6882,Sotiri Tsangari - 5th Pelendri 2,34.8981690365632,32.9666500885006
6884,Archagelos Michail Church - Pelendri,34.896302788335,32.9681174614023
6885,Pelendri Elementary School 2,34.8945082522448,32.9679868186267
6887,Pelendri Village Center 2,34.8956530767956,32.9664650432856
6889,Agios Ioannis Church,34.8954719816097,32.9638711981665
6890,Trimiklini - Pelendri Road 2,34.8899238979665,32.9569350873797
4159,Distrato Pelendriou 2,34.8602780564943,32.9137807561998
6841,Panagias Eleousis Ave. - 1st Trimiklini 2,34.8538658489568,32.9128576066831
6844,Trimiklini Elementary School 2,34.8496715899568,32.9114071771834
4160,Panagias Eleousas Church 2,34.8460826500211,32.9115313442624
6846,Panagias Eleousis Ave. - 4th Trimiklini 2,34.8442266452343,32.9138084369825
6848,Panagias Eleousis Ave. - 5th Trimiklini 2,34.8393369016692,32.9108057584725
4161,Lemesos - Troodos Road - Laneia 2,34.8230338483546,32.9120808858004
4167,Distrato Lanias - Doros,34.8177249701965,32.9156839795763
4163,Lemesos - Troodos Road - 1st  Alassa 2,34.7619761176405,32.9279900394783
7292,Polemidia - Alassa Road 2,34.744726858029,32.9812091969898
6819,The Heritage 2,34.7395422506546,32.9859733233093
6931,Lemesos - Troodos Road - Argyri Gavala 2,34.7089274521079,33.0004258868905
6930,Lemesos - Troodos Road - Agias Anastasias,34.7054194547858,33.0032759147104
6929,Giannou Kranidioti - Evagora Laniti,34.7019024011066,33.0054923845672
389,Nikou & Despoinas Pattichi - Sp. Kyprianou Ave. 1,34.6917652918361,33.0165406520715
4170,Distrato Pera Pedi - Kouka 2,34.8577557160122,32.8843225024286
4169,Silikou 1,34.8320248120355,32.8902750898176
4168,Agios Georgios Lemesou 2,34.8162688579727,32.8983108353766
6892,Polemidia - Alassa Road 1,34.7446276670548,32.9812419961057
6865,Steliou Perikleous Ave. - 1st Foini 2,34.8948448815412,32.8302912234571
6864,Dimou Irodotou - 2nd Foini 2,34.8937218962159,32.8333361197208
6863,Foini Youth Center 1,34.8938977754316,32.83668480624
6862,Foini Village Center 1,34.8923832360037,32.8369942461092
6861,Steliou Perikleous Ave. - 5th Foini 1,34.8923314806033,32.8387563924895
6867,Pano Platres Village Center 1,34.8882239275258,32.8645918592398
6868,Platres Hospital 2,34.8823679254265,32.8614170351251
6860,Kato Platres Community Board 2,34.8797383786404,32.8421732279311
6858,Kato Platres Elementary School 2,34.8777686446654,32.8392006482811
6856,Mandria 2,34.8714575260293,32.8334029434432
6854,Mandria - Koilani Road 2,34.8645005697706,32.850878325359
6853,Eleftherias - 1st Pera Pedi 1,34.8612879809642,32.8726552330241
6852,Panagias Faneromenis Ave. - 2nd Pera Pedi 1,34.8598745302268,32.8748891875375
6875,2nd Amiantos 2,34.9183830065589,32.9356595140413
4903,Ap. Andreas Church - Amiantos 2,34.9173196798609,32.9370835451353
6874,Fylagra 2,34.8852943924522,32.9300603797764
6871,Lemesos - Troodos Road - Moniatis 1,34.8660853017798,32.9017396994394
6869,Moniatis Square,34.8700829344403,32.8943494759596
4900,Archangelos Michael Church,34.8683438641784,32.8958944100121
6870,Lemesos - Troodos Road - Moniatis 2,34.8661484516898,32.901772447064
6872,Moniatis 1,34.8623058029403,32.9120719368992
5767,Troodos Square,34.9237254138149,32.8811644088428
6866,Platres Forest Station - Kalidonia 1,34.8957037772191,32.8684759441505
7280,Pano Platres Village Center 2,34.8880888830377,32.864789069464
7255,Eleftherias - 1st Pera Pedi 2,34.8613331492677,32.8727208050555
7279,Panagias Faneromenis Ave. - 2nd Pera Pedi 2,34.8598839299814,32.8752501959692
6839,1st Agios Mamas 2,34.8518027672032,32.9477552450888
6838,Agios Mamas Community Board 2,34.8510547526727,32.9488167930455
6837,Fountain - 3rd Agios Mamas 2,34.8502339653261,32.9483906876949
6836,4th Agios Mamas 1,34.8477814011304,32.9489610201922
6835,Kapileio 2,34.8321392133555,32.9580807097177
6833,Archiep. Makariou C´ - 1st Limnatis 1,34.8096296874724,32.9543856742174
6829,Timios Prodromos Church 2,34.8116386042739,32.9492457245731
6831,Limantis Central Station,34.8138835500372,32.9481400135937
6830,Grigori Afxentiou- 5th Limnatis 2,34.8124228933925,32.948643884062
6828,Archiep. Makariou C´ - 3rd Limnatis 2,34.8115667928106,32.9500439285696
6827,Archiep. Makariou C´ - 2nd Limnatis 2,34.8109451715569,32.9515312755067
6832,Archiep. Makariou C´ - 1st Limnatis 2,34.8096928238151,32.9544184397811
6823,Korfi 2,34.7946092582247,32.9636419625266
7274,Panagia Chrisokorfitissa Church 2,34.7942492063628,32.9659158543643
6826,Agias Eirinis - Apesia 2,34.7871797053661,32.9674380995945
6824,Agias Zonis - Apesia 1,34.7836096718763,32.9714180257692
6820,Agia Zoni Church - Apesia,34.7881830111553,32.9778217869514
6825,Agias Zonis - Apesia 2,34.7834744182614,32.9714727223776
6877,Nikou Karasamani - 1st Pelendri 1,34.8946262233217,32.9709418398885
7277,Panagia Potamitissa Church 1,34.9075063749346,32.9896775428609
6058,Papoutsa,34.905853904049,33.0533516921806
6803,Theodorou Kolokotroni - 6th Pissouri,34.6504012608917,32.6961093087689
6802,Theodorou Kolokotroni - 5th Pissouri 2,34.6597831934787,32.6974283597295
4945,Pissouri Community Stadium 2,34.6667109588667,32.6982545127373
6384,Apostolou Andreou - 3rd Pissouri 2,34.6697648447309,32.7006229055705
7247,Apostolou Andreou - 2nd Pissouri 2,34.6716616604386,32.7018713328347
6383,Pissouri Police Station 2,34.6759920609182,32.6989412977243
6805,Gialousas Ave. - 2nd Avdimou 1,34.6931412911943,32.7630664888418
4908,Avdimou Health Centre,34.6953142244578,32.762874684271
6804,Gialousas Ave. - 3rd Avdimou,34.6905694043771,32.762145810263
6807,Paramali 2,34.6764398872969,32.7925978588581
4911,Prastio,34.7308650000,32.7778910000
4907,Anogyra,34.7398350000,32.7339450000
4906,Alektora,34.7096800000,32.6827270000
4910,Pataniskia,34.7123370000,32.7104080000
4905,Ag. Thomas,34.7167190000,32.7252060000
4921,Dierona,34.8297150000,33.1117240000
4920,Arakapas Community Board,34.8440058882175,33.1134487840202
7227,1st Arakapas 2,34.8433711269536,33.1171667976916
6922,Eptagoneia - Arakapa - Road 2,34.8427768010231,33.1253693179593
7253,Christaki Xeniou - 1st Eptagoneia 2,34.8461328530567,33.1553452333854
7257,Eptagoneia Community Board 2,34.8463725357591,33.1582880828806
7266,Kellaki 2,34.8169758239126,33.1575757732444
4928,Parekklisia - Kellaki Road 2,34.8076359468375,33.1484397329948
6918,Michail Giorgalla - 1st Parekklisia 2,34.7471405106831,33.1589834866073
7286,Parekklisia Village Center 2,34.743739489637,33.1599820468699
7284,Parekklisia Elementary School 2,34.7423043947714,33.1609406409121
6916,Parekklisia Fountain 2,34.7386696611024,33.1613596317137
6915,Parekklisia Community Stadium,34.7365051729616,33.1615192809083
6591,Amathountos Ave. - Atlantic Bay Hotel,34.7136837975638,33.1523669633735
612,Amathountos Ave. - Ancient Amathounta,34.7095809993761,33.136896365365
611,Amathountos Ave. - Amathus hotel,34.7095213552864,33.1337621570935
6592,Amathountos Ave. - Mediterranean Hotel 1,34.7100586346049,33.1289144020793
6593,Amathountos Ave. - Four Seasons Hotel,34.7085467306172,33.1259527047505
4924,Profitis Hlias,34.8810450000,33.1085150000
4919,Sykopetra,34.8787210000,33.1128390000
4925,Akapnou,34.8394100000,33.1863560000
4922,Eptagoneia Community Board 1,34.8463821077931,33.1578615079895
3278,2nd Stop Melini,34.8665638411767,33.1576703053531
4929,Vikla,34.8269530000,33.1954180000
4927,Klonari,34.8263680000,33.1810080000
4923,Kellaki 1,34.8165971946072,33.1574875775381
4926,Pan. Glossa,34.8100030000,33.1692960000
4918,Archiep. Makariou C´ - 2nd Sanida,34.8072815832098,33.1893508210942
6893,Archiep. Makariou C´ - 3rd Sanida 2,34.8066028661115,33.1908798712199
4917,1st Vasa Kellakiou 2,34.8020203014651,33.2135431565915
7229,2nd Vasa Kellakiou 2,34.8015746377593,33.2156847485785
7226,1st Agata 2,34.7856635292077,33.246226158635
7251,Asgata Stadium 2,34.7839151399218,33.2501339079987
7260,Georgiou Katsari - 3rd Asgata 2,34.7805417300868,33.2548562282455
7245,Ap. Petrou and Pavlou Church - Asgata 2,34.7795845273997,33.255487192175
6898,Asgata - Monagroulli Road 2,34.7705127521712,33.242214197718
6899,Eirinis - 1st Monagroulli 2,34.7499541931068,33.2172767024498
4915,Agios Theodoros Church - Monagroulli 2,34.748346969257,33.2133393729982
6900,Monagroulli Community Board 2,34.7462564733078,33.2124053680275
6901,Agioi Anargyroi Elementary School 2,34.7416235100228,33.2111481227257
6902,3rd Moni - Monagroulli Road 2,34.7382544079711,33.209085838441
6904,Moni Health Center 2,34.7375434972988,33.202868340026
7267,Kostaki Panagiotou - 2nd Moni 2,34.7388173785583,33.2014403985767
6905,Andrea Nikolaou - 3rd Moni 2,34.74013977582,33.1979041483913
6906,Andrea Nikolaou - 4th Moni 2,34.7405891714288,33.1932186873898
6907,Andrea Nikolaou - 1st Pyrgos 2,34.7419361260194,33.1852797139147
7242,Andrea Nikolaou - 2nd Pyrgos 2,34.7427136256947,33.1839923468254
6909,Panagia Pyrgiotissa Church 2,34.7411356959217,33.1838686802865
6910,Panagia Chrysopyrgotissis - 4th Pyrgos 2,34.7395593759164,33.182674451967
4041,Pyrgos Community Board 2,34.740597761066,33.1817809429791
6911,Grigori Afxentiou - 6th Pyrgos 2,34.7375914191732,33.1779837561158
6912,Grigori Afxentiou - 7th Pyrgos 2,34.7346978551811,33.177191056682
6914,Grigori Afxentiou - 8th Pyrgos 2,34.7327916927819,33.1732873713449
6628,Spyrou Kyprianou Ave. - Methanon,34.7040479317145,33.0824643219773
4914,Pentakomo,34.7389660000,33.2414550000
4913,Kostaki Panagiotou - 2nd Moni 1,34.7389165740699,33.2014406393193
187,Agias Fylaxeos - Orfeos,34.6797659187806,33.0403468176243
3149,Kalavasos,34.77295233181291,33.295100688934326
3170,Konstantinoupoleos - Agiou Kyriakou 2,34.7309371499078,33.335785437035
314,Agios Nikolaos Cemetery 1,34.6916178462822,33.0569368600484
4912,Governors Beach,34.7159430000,33.2714980000
385,Agios Georgios Chavouzas Church 1,34.6935960503076,33.0155911361463
2634,Larnaka Airport,34.8710309947938,33.606891856567
3507,Paphos Airport,34.7114810879554,32.4889988699871
